[
  { "id": "tpe", "name": "Taipei", "iata": "TPE", "lat": 25.0797, "lon": 121.2342, "tz": "Asia/Taipei", "regionId": "asia" },
  { "id": "hnd", "name": "Tokyo", "iata": "HND", "lat": 35.5494, "lon": 139.7798, "tz": "Asia/Tokyo", "regionId": "asia" },
  { "id": "icn", "name": "Seoul", "iata": "ICN", "lat": 37.4602, "lon": 126.4407, "tz": "Asia/Seoul", "regionId": "asia" },
  { "id": "hkg", "name": "Hong Kong", "iata": "HKG", "lat": 22.308, "lon": 113.9185, "tz": "Asia/Hong_Kong", "regionId": "asia" },
  { "id": "sin", "name": "Singapore", "iata": "SIN", "lat": 1.3644, "lon": 103.9915, "tz": "Asia/Singapore", "regionId": "asia" },
  { "id": "bkk", "name": "Bangkok", "iata": "BKK", "lat": 13.69, "lon": 100.7501, "tz": "Asia/Bangkok", "regionId": "asia" },
  { "id": "kul", "name": "Kuala Lumpur", "iata": "KUL", "lat": 2.7456, "lon": 101.709, "tz": "Asia/Kuala_Lumpur", "regionId": "asia" },
  { "id": "del", "name": "Delhi", "iata": "DEL", "lat": 28.5562, "lon": 77.1025, "tz": "Asia/Kolkata", "regionId": "asia" },
  { "id": "dxb", "name": "Dubai", "iata": "DXB", "lat": 25.2532, "lon": 55.3657, "tz": "Asia/Dubai", "regionId": "asia" },

  { "id": "lhr", "name": "London", "iata": "LHR", "lat": 51.4700, "lon": -0.4543, "tz": "Europe/London", "regionId": "europe" },
  { "id": "cdg", "name": "Paris", "iata": "CDG", "lat": 49.0097, "lon": 2.5479, "tz": "Europe/Paris", "regionId": "europe" },
  { "id": "ams", "name": "Amsterdam", "iata": "AMS", "lat": 52.3105, "lon": 4.7683, "tz": "Europe/Amsterdam", "regionId": "europe" },
  { "id": "fra", "name": "Frankfurt", "iata": "FRA", "lat": 50.0379, "lon": 8.5622, "tz": "Europe/Berlin", "regionId": "europe" },
  { "id": "mad", "name": "Madrid", "iata": "MAD", "lat": 40.4983, "lon": -3.5676, "tz": "Europe/Madrid", "regionId": "europe" },
  { "id": "fco", "name": "Rome", "iata": "FCO", "lat": 41.8003, "lon": 12.2508, "tz": "Europe/Rome", "regionId": "europe" },
  { "id": "ist", "name": "Istanbul", "iata": "IST", "lat": 41.2753, "lon": 28.7519, "tz": "Europe/Istanbul", "regionId": "europe" },

  { "id": "syd", "name": "Sydney", "iata": "SYD", "lat": -33.9399, "lon": 151.1753, "tz": "Australia/Sydney", "regionId": "oceania" },
  { "id": "mel", "name": "Melbourne", "iata": "MEL", "lat": -37.6733, "lon": 144.8433, "tz": "Australia/Melbourne", "regionId": "oceania" },
  { "id": "akl", "name": "Auckland", "iata": "AKL", "lat": -37.0082, "lon": 174.785, "tz": "Pacific/Auckland", "regionId": "oceania" },

  { "id": "lax", "name": "Los Angeles", "iata": "LAX", "lat": 33.9416, "lon": -118.4085, "tz": "America/Los_Angeles", "regionId": "americas" },
  { "id": "sfo", "name": "San Francisco", "iata": "SFO", "lat": 37.6213, "lon": -122.379, "tz": "America/Los_Angeles", "regionId": "americas" },
  { "id": "sea", "name": "Seattle", "iata": "SEA", "lat": 47.4502, "lon": -122.3088, "tz": "America/Los_Angeles", "regionId": "americas" },
  { "id": "yvr", "name": "Vancouver", "iata": "YVR", "lat": 49.1939, "lon": -123.184, "tz": "America/Vancouver", "regionId": "americas" },
  { "id": "jfk", "name": "New York", "iata": "JFK", "lat": 40.6413, "lon": -73.7781, "tz": "America/New_York", "regionId": "americas" },
  { "id": "yyz", "name": "Toronto", "iata": "YYZ", "lat": 43.6777, "lon": -79.6248, "tz": "America/Toronto", "regionId": "americas" },
  { "id": "mex", "name": "Mexico City", "iata": "MEX", "lat": 19.4361, "lon": -99.0719, "tz": "America/Mexico_City", "regionId": "americas" },
  { "id": "gru", "name": "Sao Paulo", "iata": "GRU", "lat": -23.4356, "lon": -46.4731, "tz": "America/Sao_Paulo", "regionId": "americas" },

  { "id": "cpt", "name": "Cape Town", "iata": "CPT", "lat": -33.9702, "lon": 18.5971, "tz": "Africa/Johannesburg", "regionId": "africa" },
  { "id": "jnb", "name": "Johannesburg", "iata": "JNB", "lat": -26.1337, "lon": 28.242, "tz": "Africa/Johannesburg", "regionId": "africa" },
  { "id": "nbo", "name": "Nairobi", "iata": "NBO", "lat": -1.3192, "lon": 36.9278, "tz": "Africa/Nairobi", "regionId": "africa" },
  { "id": "add", "name": "Addis Ababa", "iata": "ADD", "lat": 8.9779, "lon": 38.7993, "tz": "Africa/Addis_Ababa", "regionId": "africa" },
  { "id": "cai", "name": "Cairo", "iata": "CAI", "lat": 30.1219, "lon": 31.4056, "tz": "Africa/Cairo", "regionId": "africa" },
  { "id": "cmn", "name": "Casablanca", "iata": "CMN", "lat": 33.3675, "lon": -7.58997, "tz": "Africa/Casablanca", "regionId": "africa" }
]
